{
  "users": [
    {
      "email": "prentic.anes@gmail.com",
      "password": "$2a$10$v7t0u5e9kWJM47HDnjDgU.hf/Li7YfTN91uasK.KBxUmZzZE6GnjW",
      "admin": false,
      "id": 1
    }
  ],
  "locations": [
    {
      "id": 6,
      "name": "Park",
      "address": "Shetalishte Slana Banja b.b., Tuzla",
      "city": "Tuzla",
      "latitude": 44.53898,
      "longitude": 18.68112
    },
    {
      "id": 7,
      "name": "Kapija",
      "address": "Shetalishte Slana Banja b.b., Tuzla",
      "city": "Tuzla",
      "latitude": 44.53898,
      "longitude": 18.68112
    },
    {
      "name": "City of Sarajevo",
      "city": "City of Sarajevo",
      "address": "Bulevar Meše Selimovića, 71160, City of Sarajevo, Bosnia and Herzegovina",
      "longitude": 18.3529146,
      "latitude": 43.8472805,
      "id": 14
    },
    {
      "name": "Mestre",
      "city": "Mestre",
      "address": "Ponte della Libertà, 30170, Mestre, Italy",
      "longitude": 12.295309770399204,
      "latitude": 45.45575205,
      "id": 16
    },
    {
      "name": "Munich",
      "city": "Munich",
      "address": "Ludlstraße, 65, 80689, Munich, Germany",
      "longitude": 11.4917359,
      "latitude": 48.1249475,
      "id": 18
    },
    {
      "name": "Munich koji",
      "city": "Munich",
      "address": "Griechenplatz, 15, 81545, Munich, Germany",
      "longitude": 11.565141155514638,
      "latitude": 48.092314,
      "id": 19
    }
  ]
}